$GPGSV,3,1,10,01,52,127,28,03,77,022,36,04,51,186,21,06,12,307,21*7A
$GPGSV,3,2,10,09,18,208,25,11,19,153,,17,44,282,25,19,33,305,17*7A
$GPGSV,3,3,10,22,58,068,30,31,20,065,16*7C
$GPGLL,4618.75160,N,00606.81364,E,152955.00,A,A*60
$GPRMC,152956.00,A,4618.75158,N,00606.81351,E,0.226,,040820,,,A*7F
$GPVTG,,T,,M,0.226,N,0.419,K,A*29
$GPGGA,152956.00,4618.75158,N,00606.81351,E,1,08,1.37,483.9,M,47.2,M,,*51
$GPGSA,A,3,01,22,03,17,09,06,04,19,,,,,2.52,1.37,2.12*04
$GPGSV,3,1,10,01,52,127,26,03,77,022,34,04,51,186,20,06,12,307,20*76
$GPGSV,3,2,10,09,18,208,23,11,19,153,,17,44,282,23,19,33,305,16*7B
$GPGSV,3,3,10,22,58,068,25,31,20,065,12*7C
$GPGLL,4618.75158,N,00606.81351,E,152956.00,A,A*6E
$GPRMC,152957.00,A,4618.75169,N,00606.81353,E,0.623,,040820,,,A*7F
$GPVTG,,T,,M,0.623,N,1.154,K,A*25
$GPGGA,152957.00,4618.75169,N,00606.81353,E,1,08,1.37,484.1,M,47.2,M,,*5F
$GPGSA,A,3,01,22,03,17,09,06,04,19,,,,,2.52,1.37,2.12*04
$GPGSV,3,1,10,01,52,127,26,03,77,022,35,04,51,186,19,06,12,307,20*7D
$GPGSV,3,2,10,09,18,208,23,11,19,153,,17,44,282,22,19,33,305,17*7B
$GPGSV,3,3,10,22,58,068,27,31,20,065,12*7E
$GPGLL,4618.75169,N,00606.81353,E,152957.00,A,A*6F
$GPRMC,152958.00,A,4618.75162,N,00606.81366,E,0.496,,040820,,,A*71
$GPVTG,,T,,M,0.496,N,0.918,K,A*28
$GPGGA,152958.00,4618.75162,N,00606.81366,E,1,08,1.37,484.4,M,47.2,M,,*58
$GPGSA,A,3,01,22,03,17,09,06,04,19,,,,,2.52,1.37,2.12*04
$GPGSV,3,1,10,01,52,127,26,03,77,022,35,04,51,186,19,06,12,307,20*7D
$GPGSV,3,2,10,09,18,208,22,11,19,153,,17,44,282,23,19,33,305,17*7B
$GPGSV,3,3,10,22,58,068,28,31,20,065,12*71
$GPGLL,4618.75162,N,00606.81366,E,152958.00,A,A*6D
$GPRMC,152959.00,A,4618.75135,N,00606.81359,E,0.771,,040820,,,A*74
$GPVTG,,T,,M,0.771,N,1.428,K,A*2D
$GPGGA,152959.00,4618.75135,N,00606.81359,E,1,08,1.37,485.0,M,47.2,M,,*52
$GPGSA,A,3,01,22,03,17,09,06,04,19,,,,,2.52,1.37,2.12*04
$GPGSV,3,1,10,01,52,127,26,03,77,022,35,04,51,186,19,06,12,307,20*7D
$GPGSV,3,2,10,09,18,208,22,11,19,153,,17,44,282,23,19,33,305,17*7B
$GPGSV,3,3,10,22,58,068,28,31,20,065,12*71
$GPGLL,4618.75135,N,00606.81359,E,152959.00,A,A*62
$GPRMC,153000.00,A,4618.75124,N,00606.81339,E,0.389,,040820,,,A*75
$GPVTG,,T,,M,0.389,N,0.721,K,A*25
$GPGGA,153000.00,4618.75124,N,00606.81339,E,1,08,1.37,485.1,M,47.2,M,,*51
$GPGSA,A,3,01,22,03,17,09,06,04,19,,,,,2.52,1.37,2.12*04
$GPGSV,3,1,10,01,52,127,26,03,77,022,36,04,51,186,18,06,12,307,21*7E
$GPGSV,3,2,10,09,18,208,23,11,19,153,,17,44,282,22,19,33,305,17*7B
$GPGSV,3,3,10,22,58,068,28,31,20,065,12*71
$GPGLL,4618.75124,N,00606.81339,E,153000.00,A,A*60
$GPRMC,153001.00,A,4618.75135,N,00606.81350,E,0.366,,040820,,,A*7A
$GPVTG,,T,,M,0.366,N,0.678,K,A*29
$GPGGA,153001.00,4618.75135,N,00606.81350,E,1,08,1.37,485.1,M,47.2,M,,*5F
$GPGSA,A,3,01,22,03,17,09,06,04,19,,,,,2.52,1.37,2.12*04
$GPGSV,3,1,10,01,52,127,26,03,77,022,36,04,51,186,19,06,12,307,21*7F
$GPGSV,3,2,10,09,18,208,23,11,19,153,,17,44,282,22,19,33,305,17*7B
$GPGSV,3,3,10,22,58,068,28,31,20,065,12*71
$GPGLL,4618.75135,N,00606.81350,E,153001.00,A,A*6E
$GPRMC,153002.00,A,4618.75131,N,00606.81354,E,0.567,,040820,,,A*7E
$GPVTG,,T,,M,0.567,N,1.050,K,A*23
$GPGGA,153002.00,4618.75131,N,00606.81354,E,1,08,1.37,485.7,M,47.2,M,,*5A
$GPGSA,A,3,01,22,03,17,09,06,04,19,,,,,2.52,1.37,2.12*04
$GPGSV,3,1,10,01,52,127,26,03,77,022,34,04,51,186,19,06,12,307,21*7D
$GPGSV,3,2,10,09,18,208,23,11,19,153,,17,44,282,21,19,33,305,18*77
$GPGSV,3,3,10,22,58,068,28,31,20,065,14*77
$GPGLL,4618.75131,N,00606.81354,E,153002.00,A,A*6D
$GPRMC,153003.00,A,4618.75125,N,00606.81362,E,0.442,,040820,,,A*79
$GPVTG,,T,,M,0.442,N,0.818,K,A*20
$GPGGA,153003.00,4618.75125,N,00606.81362,E,1,08,1.37,485.7,M,47.2,M,,*5B
$GPGSA,A,3,01,22,03,17,09,06,04,19,,,,,2.52,1.37,2.12*04
$GPGSV,3,1,10,01,52,127,26,03,77,022,35,04,51,186,19,06,12,307,21*7C
$GPGSV,3,2,10,09,18,208,23,11,19,153,,17,44,282,22,19,33,305,18*74
$GPGSV,3,3,10,22,58,068,29,31,20,065,15*77
$GPGLL,4618.75125,N,00606.81362,E,153003.00,A,A*6C
$GPRMC,153004.00,A,4618.75117,N,00606.81359,E,0.359,,040820,,,A*7A
$GPVTG,,T,,M,0.359,N,0.664,K,A*28
$GPGGA,153004.00,4618.75117,N,00606.81359,E,1,08,1.37,485.7,M,47.2,M,,*55
$GPGSA,A,3,01,22,03,17,09,06,04,19,,,,,2.52,1.37,2.12*04
$GPGSV,3,1,10,01,52,127,26,03,77,022,33,04,51,186,19,06,12,307,20*7B
$GPGSV,3,2,10,09,18,208,23,11,19,153,,17,44,282,21,19,33,305,18*77
$GPGSV,3,3,10,22,58,068,28,31,20,065,15*76
$GPGLL,4618.75117,N,00606.81359,E,153004.00,A,A*62
$GPRMC,153005.00,A,4618.75198,N,00606.81319,E,2.889,,040820,,,A*7C
$GPVTG,,T,,M,2.889,N,5.350,K,A*2B
$GPGGA,153005.00,4618.75198,N,00606.81319,E,1,08,1.37,486.0,M,47.2,M,,*53
$GPGSA,A,3,01,22,03,17,09,06,04,19,,,,,2.52,1.37,2.12*04
$GPGSV,3,1,10,01,52,127,25,03,77,022,33,04,51,186,19,06,12,307,20*78
$GPGSV,3,2,10,09,18,208,22,11,19,153,,17,44,282,21,19,33,305,18*76
$GPGSV,3,3,10,22,58,068,28,31,20,065,15*76
$GPGLL,4618.75198,N,00606.81319,E,153005.00,A,A*60
$GPRMC,153006.00,A,4618.75217,N,00606.81316,E,0.725,,040820,,,A*7F
$GPVTG,,T,,M,0.725,N,1.343,K,A*26
$GPGGA,153006.00,4618.75217,N,00606.81316,E,1,08,1.37,486.3,M,47.2,M,,*58
$GPGSA,A,3,01,22,03,17,09,06,04,19,,,,,2.52,1.37,2.12*04
$GPGSV,3,1,10,01,52,127,25,03,77,022,33,04,51,186,20,06,12,307,20*72
$GPGSV,3,2,10,09,18,208,21,11,19,153,,17,44,282,21,19,33,305,17*7A
$GPGSV,3,3,10,22,58,068,28,31,20,065,15*76
$GPGLL,4618.75217,N,00606.81316,E,153006.00,A,A*68
$GPRMC,153007.00,A,4618.75243,N,00606.81315,E,0.744,,040820,,,A*7B
$GPVTG,,T,,M,0.744,N,1.377,K,A*26
$GPGGA,153007.00,4618.75243,N,00606.81315,E,1,08,1.37,486.7,M,47.2,M,,*5F
$GPGSA,A,3,01,22,03,17,09,06,04,19,,,,,2.52,1.37,2.12*04
$GPGSV,3,1,10,01,52,127,26,03,77,022,35,04,51,186,20,06,12,307,21*76
$GPGSV,3,2,10,09,18,208,21,11,19,153,,17,44,282,20,19,33,305,17*7B
$GPGSV,3,3,10,22,58,068,29,31,20,065,15*77
$GPGLL,4618.75243,N,00606.81315,E,153007.00,A,A*6B
$GPRMC,153008.00,A,4618.75254,N,00606.81335,E,0.753,,040820,,,A*76
$GPVTG,,T,,M,0.753,N,1.395,K,A*2C
$GPGGA,153008.00,4618.75254,N,00606.81335,E,1,08,1.37,487.3,M,47.2,M,,*51
$GPGSA,A,3,01,22,03,17,09,06,04,19,,,,,2.52,1.37,2.12*04
$GPGSV,3,1,10,01,52,127,26,03,77,022,35,04,51,186,19,06,12,307,21*7C
$GPGSV,3,2,10,09,18,208,21,11,19,153,,17,44,282,20,19,33,305,18*74
$GPGSV,3,3,10,22,58,068,28,31,20,065,12*71
$GPGLL,4618.75254,N,00606.81335,E,153008.00,A,A*60
$GPRMC,153009.00,A,4618.75236,N,00606.81304,E,0.383,,040820,,,A*78
$GPVTG,,T,,M,0.383,N,0.709,K,A*25
$GPGGA,153009.00,4618.75236,N,00606.81304,E,1,08,1.37,487.9,M,47.2,M,,*5C
$GPGSA,A,3,01,22,03,17,09,06,04,19,,,,,2.52,1.37,2.12*04
$GPGSV,3,1,10,01,52,127,25,03,77,022,35,04,51,186,20,06,12,307,20*74
$GPGSV,3,2,10,09,18,208,21,11,19,153,,17,44,282,21,19,33,305,17*7A
$GPGSV,3,3,10,22,58,068,28,31,20,065,12*71
$GPGLL,4618.75236,N,00606.81304,E,153009.00,A,A*67
$GPRMC,153010.00,A,4618.75234,N,00606.81285,E,0.342,,040820,,,A*77
$GPVTG,,T,,M,0.342,N,0.633,K,A*20
$GPGGA,153010.00,4618.75234,N,00606.81285,E,1,08,1.37,488.1,M,47.2,M,,*59
$GPGSA,A,3,01,22,03,17,09,06,04,19,,,,,2.52,1.37,2.12*04
$GPGSV,3,1,10,01,52,127,26,03,77,022,34,04,51,186,20,06,12,307,20*76
$GPGSV,3,2,10,09,18,208,21,11,19,153,,17,44,282,22,19,33,305,18*76
$GPGSV,3,3,10,22,58,068,29,31,20,065,13*71
$GPGLL,4618.75234,N,00606.81285,E,153010.00,A,A*65
$GPRMC,153011.00,A,4618.75220,N,00606.81273,E,1.255,,040820,,,A*7C
$GPVTG,,T,,M,1.255,N,2.325,K,A*26
$GPGGA,153011.00,4618.75220,N,00606.81273,E,1,08,1.37,488.0,M,47.2,M,,*55
$GPGSA,A,3,01,22,03,17,09,06,04,19,,,,,2.52,1.37,2.12*04
$GPGSV,3,1,10,01,52,127,26,03,77,022,37,04,51,186,21,06,12,307,20*74
$GPGSV,3,2,10,09,18,208,22,11,19,153,,17,44,282,22,19,33,305,19*74
$GPGSV,3,3,10,22,58,068,29,31,20,065,13*71
$GPGLL,4618.75220,N,00606.81273,E,153011.00,A,A*68
$GPRMC,153012.00,A,4618.75235,N,00606.81270,E,1.207,,040820,,,A*7F
$GPVTG,,T,,M,1.207,N,2.235,K,A*21
$GPGGA,153012.00,4618.75235,N,00606.81270,E,1,08,1.37,487.8,M,47.2,M,,*56
$GPGSA,A,3,01,22,03,17,09,06,04,19,,,,,2.52,1.37,2.12*04
$GPGSV,3,1,10,01,51,128,26,03,77,022,35,04,51,186,20,06,12,307,19*71
$GPGSV,3,2,10,09,18,208,22,11,19,153,,17,44,282,22,19,33,305,19*74
$GPGSV,3,3,10,22,58,068,28,31,20,065,12*71
$GPGLL,4618.75235,N,00606.81270,E,153012.00,A,A*6C
$GPRMC,153013.00,A,4618.75230,N,00606.81233,E,1.396,,040820,,,A*75
$GPVTG,,T,,M,1.396,N,2.586,K,A*27
$GPGGA,153013.00,4618.75230,N,00606.81233,E,1,08,1.37,487.7,M,47.2,M,,*5A
$GPGSA,A,3,01,22,03,17,09,06,04,19,,,,,2.52,1.37,2.12*04
$GPGSV,3,1,10,01,51,128,26,03,77,022,37,04,51,186,21,06,12,307,21*79
$GPGSV,3,2,10,09,18,208,22,11,19,153,,17,44,282,23,19,33,305,19*75
$GPGSV,3,3,10,22,58,068,29,31,20,065,12*70
$GPGLL,4618.75230,N,00606.81233,E,153013.00,A,A*6F
$GPRMC,153014.00,A,4618.75215,N,00606.81208,E,0.980,,040820,,,A*71
$GPVTG,,T,,M,0.980,N,1.815,K,A*2F
$GPGGA,153014.00,4618.75215,N,00606.81208,E,1,08,1.37,488.0,M,47.2,M,,*5A
$GPGSA,A,3,01,22,03,17,09,06,04,19,,,,,2.52,1.37,2.12*04
$GPGSV,3,1,10,01,51,128,26,03,77,024,35,04,51,186,21,06,12,307,21*7D
$GPGSV,3,2,10,09,18,208,22,11,19,153,,17,44,282,23,19,33,305,18*74
$GPGSV,3,3,10,22,58,068,29,31,20,065,11*73
$GPGLL,4618.75215,N,00606.81208,E,153014.00,A,A*67
$GPRMC,153015.00,A,4618.75226,N,00606.81215,E,0.169,,040820,,,A*73
$GPVTG,,T,,M,0.169,N,0.313,K,A*2C
$GPGGA,153015.00,4618.75226,N,00606.81215,E,1,08,1.37,487.5,M,47.2,M,,*5D
$GPGSA,A,3,01,22,03,17,09,06,04,19,,,,,2.52,1.37,2.12*04
$GPGSV,3,1,10,01,51,128,26,03,77,024,33,04,52,186,20,06,12,307,20*78
$GPGSV,3,2,10,09,18,208,21,11,19,153,,17,44,282,22,19,33,305,16*78
$GPGSV,3,3,10,22,58,068,28,31,20,065,11*72
$GPGLL,4618.75226,N,00606.81215,E,153015.00,A,A*6A
$GPRMC,153016.00,A,4618.75228,N,00606.81236,E,0.590,,040820,,,A*7D
$GPVTG,,T,,M,0.590,N,1.094,K,A*23
$GPGGA,153016.00,4618.75228,N,00606.81236,E,1,08,1.37,487.3,M,47.2,M,,*57
$GPGSA,A,3,01,22,03,17,09,06,04,19,,,,,2.52,1.37,2.12*04
$GPGSV,3,1,10,01,51,128,26,03,77,024,35,04,52,186,21,06,12,307,20*7F
$GPGSV,3,2,10,09,18,208,22,11,19,153,,17,44,282,23,19,33,305,16*7A
$GPGSV,3,3,10,22,58,068,29,31,20,065,12*70
$GPGLL,4618.75228,N,00606.81236,E,153016.00,A,A*66
$GPRMC,153017.00,A,4618.75254,N,00606.81231,E,0.501,,040820,,,A*78
$GPVTG,,T,,M,0.501,N,0.929,K,A*25
$GPGGA,153017.00,4618.75254,N,00606.81231,E,1,08,1.37,486.5,M,47.2,M,,*5D
$GPGSA,A,3,01,22,03,17,09,06,04,19,,,,,2.52,1.37,2.12*04
$GPGSV,3,1,10,01,51,128,27,03,77,024,35,04,52,186,21,06,12,307,21*7F
$GPGSV,3,2,10,09,18,208,22,11,19,153,,17,44,282,23,19,33,305,18*74
$GPGSV,3,3,10,22,58,068,29,31,20,065,12*70
$GPGLL,4618.75254,N,00606.81231,E,153017.00,A,A*6B
$GPRMC,153018.00,A,4618.75260,N,00606.81223,E,0.225,,040820,,,A*72
$GPVTG,,T,,M,0.225,N,0.416,K,A*25
$GPGGA,153018.00,4618.75260,N,00606.81223,E,1,08,1.37,485.9,M,47.2,M,,*59
$GPGSA,A,3,01,22,03,17,09,06,04,19,,,,,2.52,1.37,2.12*04
$GPGSV,3,1,10,01,51,128,27,03,77,024,35,04,52,186,21,06,12,307,20*7E
$GPGSV,3,2,10,09,18,208,22,11,19,153,,17,44,282,22,19,33,305,19*74
$GPGSV,3,3,10,22,58,068,29,31,20,065,11*73
$GPGLL,4618.75260,N,00606.81223,E,153018.00,A,A*60
$GPRMC,153019.00,A,4618.75241,N,00606.81194,E,0.431,,040820,,,A*7C
$GPVTG,,T,,M,0.431,N,0.798,K,A*23
$GPGGA,153019.00,4618.75241,N,00606.81194,E,1,08,1.37,486.7,M,47.2,M,,*59
$GPGSA,A,3,01,22,03,17,09,06,04,19,,,,,2.52,1.37,2.12*04
$GPGSV,3,1,10,01,51,128,26,03,77,024,35,04,52,186,21,06,12,307,20*7F
$GPGSV,3,2,10,09,18,208,22,11,19,153,,17,44,282,22,19,33,305,18*75
$GPGSV,3,3,10,22,58,068,29,31,20,065,11*73
$GPGLL,4618.75241,N,00606.81194,E,153019.00,A,A*6D
$GPRMC,153020.00,A,4618.75253,N,00606.81214,E,0.576,,040820,,,A*7C
$GPVTG,,T,,M,0.576,N,1.066,K,A*26
$GPGGA,153020.00,4618.75253,N,00606.81214,E,1,08,1.37,486.4,M,47.2,M,,*58
$GPGSA,A,3,01,22,03,17,09,06,04,19,,,,,2.52,1.37,2.12*04
$GPGSV,3,1,10,01,51,128,26,03,77,024,35,04,52,186,21,06,12,307,19*75
$GPGSV,3,2,10,09,19,208,22,11,19,153,,17,44,282,22,19,33,305,17*7B
$GPGSV,3,3,10,22,58,068,28,31,20,065,15*76
$GPGLL,4618.75253,N,00606.81214,E,153020.00,A,A*6F